{"type":"FeatureCollection","features":[{"type":"Feature","geometry":{"type":"Point","coordinates":[-77.516196,37.580204]},"properties":{"guid":"548017fc-330b-4a73-8330-2aaf9ef21c8e","name":"Westwood Pharmacy #4808777","address1":"5823 Patterson Ave","address2":"","city":"Richmond","state":"VA","zip":"23226","phone":"804-288-1933","distance":3.46,"lat":37.580204,"long":-77.516196,"in_stock":true}},{"type":"Feature","geometry":{"type":"Point","coordinates":[-77.453599,37.600756]},"properties":{"guid":"ec4afea2-53db-4115-a98d-9ac0c19c597a","name":"Walgreens Co. #3852","address1":"1157 Azalea Ave","address2":"","city":"Richmond","state":"VA","zip":"23227","phone":"804-261-4734","distance":3.69,"lat":37.600756,"long":-77.453599,"in_stock":true}},{"type":"Feature","geometry":{"type":"Point","coordinates":[-77.469446,37.562487]},"properties":{"guid":"95623275-aa8b-40bf-a9a0-2649a001eac9","name":"CVS Pharmacy, Inc. #01530","address1":"2738 W Broad St","address2":"","city":"Richmond","state":"VA","zip":"23220","phone":"(804) 359-2497","distance":5.17,"lat":37.562487,"long":-77.469446,"in_stock":false}},{"type":"Feature","geometry":{"type":"Point","coordinates":[-77.486548,37.55623]},"properties":{"guid":"5fd60f0f-2905-46be-9d4a-8633aaa92ed3","name":"CVS Pharmacy, Inc. #01988","address1":"3514 W Cary St","address2":"","city":"Richmond","state":"VA","zip":"23221","phone":"(804) 355-8533","distance":5.26,"lat":37.55623,"long":-77.486548,"in_stock":true}},{"type":"Feature","geometry":{"type":"Point","coordinates":[-77.445905,37.571723]},"properties":{"guid":"dc3c9fdb-6ef8-4b88-bbbe-ca647f3351d8","name":"Walgreens Co. #3853","address1":"2924 Chamberlayne Ave","address2":"","city":"Richmond","state":"VA","zip":"23222","phone":"804-321-7068","distance":5.34,"lat":37.571723,"long":-77.445905,"in_stock":true}},{"type":"Feature","geometry":{"type":"Point","coordinates":[-77.487943,37.554357]},"properties":{"guid":"c316cbdb-f3ed-4793-940e-aeae7201f112","name":"Kroger Pharmacy #02900504","address1":"3507 W Cary St","address2":"","city":"Richmond","state":"VA","zip":"23221","phone":"(804) 254-6400","distance":5.36,"lat":37.554357,"long":-77.487943,"in_stock":false}},{"type":"Feature","geometry":{"type":"Point","coordinates":[-77.453883,37.555945]},"properties":{"guid":"76e864a4-4c64-4753-964e-7152d7008bb1","name":"Kroger Pharmacy #02900511","address1":"901 N Lombardy St","address2":"","city":"Richmond","state":"VA","zip":"23220","phone":"(804) 213-3623","distance":5.97,"lat":37.555945,"long":-77.453883,"in_stock":true}},{"type":"Feature","geometry":{"type":"Point","coordinates":[-77.446731,37.548928]},"properties":{"guid":"4d6b9311-83b4-42b9-9de2-fb0ca8db05a7","name":"Rite Aid #RA103715","address1":"520 W Broad St","address2":"","city":"Richmond","state":"VA","zip":"23220","phone":"804-225-1340","distance":6.59,"lat":37.548928,"long":-77.446731,"in_stock":true}},{"type":"Feature","geometry":{"type":"Point","coordinates":[-77.524658,37.534365]},"properties":{"guid":"e9c89ecf-b8d2-4ce1-a076-a17e7707d2d8","name":"Publix Super Markets Inc. #1636","address1":"7045 Forest Hill Ave","address2":"","city":"Richmond","state":"VA","zip":"23225","phone":"(804) 253-0351","distance":6.66,"lat":37.534365,"long":-77.524658,"in_stock":false}},{"type":"Feature","geometry":{"type":"Point","coordinates":[-77.531488,37.534913]},"properties":{"guid":"47fba5eb-680d-4311-acbe-e1996b143e57","name":"Walmart Inc #10-2821","address1":"2501 Sheila Ln","address2":"","city":"Richmond","state":"VA","zip":"23225","phone":"8043206991","distance":6.67,"lat":37.534913,"long":-77.531488,"in_stock":true}},{"type":"Feature","geometry":{"type":"Point","coordinates":[-77.489287,37.520638]},"properties":{"guid":"0408171a-718b-48d5-b58e-2269cf8b97ce","name":"Walgreens Co. #3681","address1":"1214 Westover Hills Blvd","address2":"","city":"Richmond","state":"VA","zip":"23225","phone":"804-230-6335","distance":7.64,"lat":37.520638,"long":-77.489287,"in_stock":true}},{"type":"Feature","geometry":{"type":"Point","coordinates":[-77.425328,37.535944]},"properties":{"guid":"392365f8-d38a-4840-a576-ce717eec892f","name":"JenCare Neighborhood Medical Shockoe Bottom, LLC","address1":"1712 E Broad St","address2":"","city":"Richmond","state":"VA","zip":"23223","phone":"804-344-9848","distance":7.98,"lat":37.535944,"long":-77.425328,"in_stock":true}},{"type":"Feature","geometry":{"type":"Point","coordinates":[-77.421607,37.529504]},"properties":{"guid":"917655a5-f010-4db8-a360-c4616fc674bd","name":"CVS Pharmacy, Inc. #02973","address1":"2400 E Main St","address2":"","city":"Richmond","state":"VA","zip":"23223","phone":"(804) 643-1383","distance":8.46,"lat":37.529504,"long":-77.421607,"in_stock":true}},{"type":"Feature","geometry":{"type":"Point","coordinates":[-77.421607,37.529504]},"properties":{"guid":"917655a5-f010-4db8-a360-c4616fc674bd","name":"CVS Pharmacy, Inc. #02973","address1":"2400 E Main St","address2":"","city":"Richmond","state":"VA","zip":"23223","phone":"(804) 643-1383","distance":5.2,"lat":37.529504,"long":-77.421607,"in_stock":true}},{"type":"Feature","geometry":{"type":"Point","coordinates":[-77.425328,37.535944]},"properties":{"guid":"392365f8-d38a-4840-a576-ce717eec892f","name":"JenCare Neighborhood Medical Shockoe Bottom, LLC","address1":"1712 E Broad St","address2":"","city":"Richmond","state":"VA","zip":"23223","phone":"804-344-9848","distance":5.52,"lat":37.535944,"long":-77.425328,"in_stock":true}},{"type":"Feature","geometry":{"type":"Point","coordinates":[-77.446731,37.548928]},"properties":{"guid":"4d6b9311-83b4-42b9-9de2-fb0ca8db05a7","name":"Rite Aid #RA103715","address1":"520 W Broad St","address2":"","city":"Richmond","state":"VA","zip":"23220","phone":"804-225-1340","distance":6.94,"lat":37.548928,"long":-77.446731,"in_stock":true}},{"type":"Feature","geometry":{"type":"Point","coordinates":[-77.453883,37.555945]},"properties":{"guid":"76e864a4-4c64-4753-964e-7152d7008bb1","name":"Kroger Pharmacy #02900511","address1":"901 N Lombardy St","address2":"","city":"Richmond","state":"VA","zip":"23220","phone":"(804) 213-3623","distance":7.49,"lat":37.555945,"long":-77.453883,"in_stock":true}},{"type":"Feature","geometry":{"type":"Point","coordinates":[-77.445905,37.571723]},"properties":{"guid":"dc3c9fdb-6ef8-4b88-bbbe-ca647f3351d8","name":"Walgreens Co. #3853","address1":"2924 Chamberlayne Ave","address2":"","city":"Richmond","state":"VA","zip":"23222","phone":"804-321-7068","distance":7.65,"lat":37.571723,"long":-77.445905,"in_stock":true}},{"type":"Feature","geometry":{"type":"Point","coordinates":[-77.469446,37.562487]},"properties":{"guid":"95623275-aa8b-40bf-a9a0-2649a001eac9","name":"CVS Pharmacy, Inc. #01530","address1":"2738 W Broad St","address2":"","city":"Richmond","state":"VA","zip":"23220","phone":"(804) 359-2497","distance":8.46,"lat":37.562487,"long":-77.469446,"in_stock":false}},{"type":"Feature","geometry":{"type":"Point","coordinates":[-77.487961,37.493526]},"properties":{"guid":"13faebcf-b0fe-4afc-a72c-42ea92ce0bd0","name":"Walgreens Co. #3682","address1":"5122 Hull Street Rd","address2":"","city":"Richmond","state":"VA","zip":"23224","phone":"804-232-4399","distance":8.73,"lat":37.493526,"long":-77.487961,"in_stock":true}},{"type":"Feature","geometry":{"type":"Point","coordinates":[-77.489287,37.520638]},"properties":{"guid":"0408171a-718b-48d5-b58e-2269cf8b97ce","name":"Walgreens Co. #3681","address1":"1214 Westover Hills Blvd","address2":"","city":"Richmond","state":"VA","zip":"23225","phone":"804-230-6335","distance":8.76,"lat":37.520638,"long":-77.489287,"in_stock":true}},{"type":"Feature","geometry":{"type":"Point","coordinates":[-77.48253,37.469142]},"properties":{"guid":"ccb2ca03-2bc7-47df-9156-b53308ca47b5","name":"CVS Pharmacy, Inc. #01971","address1":"4715 Walmsley Blvd","address2":"","city":"Richmond","state":"VA","zip":"23234","phone":"(804) 275-9235","distance":8.83,"lat":37.469142,"long":-77.48253,"in_stock":true}},{"type":"Feature","geometry":{"type":"Point","coordinates":[-77.486548,37.55623]},"properties":{"guid":"5fd60f0f-2905-46be-9d4a-8633aaa92ed3","name":"CVS Pharmacy, Inc. #01988","address1":"3514 W Cary St","address2":"","city":"Richmond","state":"VA","zip":"23221","phone":"(804) 355-8533","distance":9.15,"lat":37.55623,"long":-77.486548,"in_stock":true}},{"type":"Feature","geometry":{"type":"Point","coordinates":[-77.487943,37.554357]},"properties":{"guid":"c316cbdb-f3ed-4793-940e-aeae7201f112","name":"Kroger Pharmacy #02900504","address1":"3507 W Cary St","address2":"","city":"Richmond","state":"VA","zip":"23221","phone":"(804) 254-6400","distance":9.18,"lat":37.554357,"long":-77.487943,"in_stock":false}},{"type":"Feature","geometry":{"type":"Point","coordinates":[-77.453599,37.600756]},"properties":{"guid":"ec4afea2-53db-4115-a98d-9ac0c19c597a","name":"Walgreens Co. #3852","address1":"1157 Azalea Ave","address2":"","city":"Richmond","state":"VA","zip":"23227","phone":"804-261-4734","distance":9.23,"lat":37.600756,"long":-77.453599,"in_stock":true}},{"type":"Feature","geometry":{"type":"Point","coordinates":[-77.513481,37.480734]},"properties":{"guid":"0a90466b-5ab7-4608-8fe5-b8fd0fa70274","name":"JenCare Neighborhood Medical Hull St, LLC","address1":"6530 Hull Street Rd","address2":"","city":"Richmond","state":"VA","zip":"23224","phone":"804-674-3425","distance":10.26,"lat":37.480734,"long":-77.513481,"in_stock":true}},{"type":"Feature","geometry":{"type":"Point","coordinates":[-77.524658,37.534365]},"properties":{"guid":"e9c89ecf-b8d2-4ce1-a076-a17e7707d2d8","name":"Publix Super Markets Inc. #1636","address1":"7045 Forest Hill Ave","address2":"","city":"Richmond","state":"VA","zip":"23225","phone":"(804) 253-0351","distance":10.8,"lat":37.534365,"long":-77.524658,"in_stock":false}},{"type":"Feature","geometry":{"type":"Point","coordinates":[-77.531488,37.534913]},"properties":{"guid":"47fba5eb-680d-4311-acbe-e1996b143e57","name":"Walmart Inc #10-2821","address1":"2501 Sheila Ln","address2":"","city":"Richmond","state":"VA","zip":"23225","phone":"8043206991","distance":11.17,"lat":37.534913,"long":-77.531488,"in_stock":true}},{"type":"Feature","geometry":{"type":"Point","coordinates":[-77.516196,37.580204]},"properties":{"guid":"548017fc-330b-4a73-8330-2aaf9ef21c8e","name":"Westwood Pharmacy #4808777","address1":"5823 Patterson Ave","address2":"","city":"Richmond","state":"VA","zip":"23226","phone":"804-288-1933","distance":11.29,"lat":37.580204,"long":-77.516196,"in_stock":true}},{"type":"Feature","geometry":{"type":"Point","coordinates":[-77.513481,37.480734]},"properties":{"guid":"0a90466b-5ab7-4608-8fe5-b8fd0fa70274","name":"JenCare Neighborhood Medical Hull St, LLC","address1":"6530 Hull Street Rd","address2":"","city":"Richmond","state":"VA","zip":"23224","phone":"804-674-3425","distance":2.84,"lat":37.480734,"long":-77.513481,"in_stock":true}},{"type":"Feature","geometry":{"type":"Point","coordinates":[-77.48253,37.469142]},"properties":{"guid":"ccb2ca03-2bc7-47df-9156-b53308ca47b5","name":"CVS Pharmacy, Inc. #01971","address1":"4715 Walmsley Blvd","address2":"","city":"Richmond","state":"VA","zip":"23234","phone":"(804) 275-9235","distance":2.88,"lat":37.469142,"long":-77.48253,"in_stock":true}},{"type":"Feature","geometry":{"type":"Point","coordinates":[-77.487961,37.493526]},"properties":{"guid":"13faebcf-b0fe-4afc-a72c-42ea92ce0bd0","name":"Walgreens Co. #3682","address1":"5122 Hull Street Rd","address2":"","city":"Richmond","state":"VA","zip":"23224","phone":"804-232-4399","distance":4.09,"lat":37.493526,"long":-77.487961,"in_stock":true}},{"type":"Feature","geometry":{"type":"Point","coordinates":[-77.489287,37.520638]},"properties":{"guid":"0408171a-718b-48d5-b58e-2269cf8b97ce","name":"Walgreens Co. #3681","address1":"1214 Westover Hills Blvd","address2":"","city":"Richmond","state":"VA","zip":"23225","phone":"804-230-6335","distance":5.82,"lat":37.520638,"long":-77.489287,"in_stock":true}},{"type":"Feature","geometry":{"type":"Point","coordinates":[-77.524658,37.534365]},"properties":{"guid":"e9c89ecf-b8d2-4ce1-a076-a17e7707d2d8","name":"Publix Super Markets Inc. #1636","address1":"7045 Forest Hill Ave","address2":"","city":"Richmond","state":"VA","zip":"23225","phone":"(804) 253-0351","distance":6.52,"lat":37.534365,"long":-77.524658,"in_stock":false}},{"type":"Feature","geometry":{"type":"Point","coordinates":[-77.531488,37.534913]},"properties":{"guid":"47fba5eb-680d-4311-acbe-e1996b143e57","name":"Walmart Inc #10-2821","address1":"2501 Sheila Ln","address2":"","city":"Richmond","state":"VA","zip":"23225","phone":"8043206991","distance":6.59,"lat":37.534913,"long":-77.531488,"in_stock":true}},{"type":"Feature","geometry":{"type":"Point","coordinates":[-77.487943,37.554357]},"properties":{"guid":"c316cbdb-f3ed-4793-940e-aeae7201f112","name":"Kroger Pharmacy #02900504","address1":"3507 W Cary St","address2":"","city":"Richmond","state":"VA","zip":"23221","phone":"(804) 254-6400","distance":8.09,"lat":37.554357,"long":-77.487943,"in_stock":true}},{"type":"Feature","geometry":{"type":"Point","coordinates":[-77.421607,37.529504]},"properties":{"guid":"917655a5-f010-4db8-a360-c4616fc674bd","name":"CVS Pharmacy, Inc. #02973","address1":"2400 E Main St","address2":"","city":"Richmond","state":"VA","zip":"23223","phone":"(804) 643-1383","distance":8.21,"lat":37.529504,"long":-77.421607,"in_stock":true}},{"type":"Feature","geometry":{"type":"Point","coordinates":[-77.486548,37.55623]},"properties":{"guid":"5fd60f0f-2905-46be-9d4a-8633aaa92ed3","name":"CVS Pharmacy, Inc. #01988","address1":"3514 W Cary St","address2":"","city":"Richmond","state":"VA","zip":"23221","phone":"(804) 355-8533","distance":8.24,"lat":37.55623,"long":-77.486548,"in_stock":true}},{"type":"Feature","geometry":{"type":"Point","coordinates":[-77.425328,37.535944]},"properties":{"guid":"392365f8-d38a-4840-a576-ce717eec892f","name":"JenCare Neighborhood Medical Shockoe Bottom, LLC","address1":"1712 E Broad St","address2":"","city":"Richmond","state":"VA","zip":"23223","phone":"804-344-9848","distance":8.42,"lat":37.535944,"long":-77.425328,"in_stock":true}},{"type":"Feature","geometry":{"type":"Point","coordinates":[-77.446731,37.548928]},"properties":{"guid":"4d6b9311-83b4-42b9-9de2-fb0ca8db05a7","name":"Rite Aid #RA103715","address1":"520 W Broad St","address2":"","city":"Richmond","state":"VA","zip":"23220","phone":"804-225-1340","distance":8.53,"lat":37.548928,"long":-77.446731,"in_stock":true}},{"type":"Feature","geometry":{"type":"Point","coordinates":[-77.453883,37.555945]},"properties":{"guid":"76e864a4-4c64-4753-964e-7152d7008bb1","name":"Kroger Pharmacy #02900511","address1":"901 N Lombardy St","address2":"","city":"Richmond","state":"VA","zip":"23220","phone":"(804) 213-3623","distance":8.79,"lat":37.555945,"long":-77.453883,"in_stock":true}},{"type":"Feature","geometry":{"type":"Point","coordinates":[-77.469446,37.562487]},"properties":{"guid":"95623275-aa8b-40bf-a9a0-2649a001eac9","name":"CVS Pharmacy, Inc. #01530","address1":"2738 W Broad St","address2":"","city":"Richmond","state":"VA","zip":"23220","phone":"(804) 359-2497","distance":8.91,"lat":37.562487,"long":-77.469446,"in_stock":true}},{"type":"Feature","geometry":{"type":"Point","coordinates":[-77.445905,37.571723]},"properties":{"guid":"dc3c9fdb-6ef8-4b88-bbbe-ca647f3351d8","name":"Walgreens Co. #3853","address1":"2924 Chamberlayne Ave","address2":"","city":"Richmond","state":"VA","zip":"23222","phone":"804-321-7068","distance":9.97,"lat":37.571723,"long":-77.445905,"in_stock":true}},{"type":"Feature","geometry":{"type":"Point","coordinates":[-77.531488,37.534913]},"properties":{"guid":"47fba5eb-680d-4311-acbe-e1996b143e57","name":"Walmart Inc #10-2821","address1":"2501 Sheila Ln","address2":"","city":"Richmond","state":"VA","zip":"23225","phone":"8043206991","distance":4.63,"lat":37.534913,"long":-77.531488,"in_stock":true}},{"type":"Feature","geometry":{"type":"Point","coordinates":[-77.524658,37.534365]},"properties":{"guid":"e9c89ecf-b8d2-4ce1-a076-a17e7707d2d8","name":"Publix Super Markets Inc. #1636","address1":"7045 Forest Hill Ave","address2":"","city":"Richmond","state":"VA","zip":"23225","phone":"(804) 253-0351","distance":4.97,"lat":37.534365,"long":-77.524658,"in_stock":false}},{"type":"Feature","geometry":{"type":"Point","coordinates":[-77.513481,37.480734]},"properties":{"guid":"0a90466b-5ab7-4608-8fe5-b8fd0fa70274","name":"JenCare Neighborhood Medical Hull St, LLC","address1":"6530 Hull Street Rd","address2":"","city":"Richmond","state":"VA","zip":"23224","phone":"804-674-3425","distance":5.66,"lat":37.480734,"long":-77.513481,"in_stock":true}},{"type":"Feature","geometry":{"type":"Point","coordinates":[-77.489287,37.520638]},"properties":{"guid":"0408171a-718b-48d5-b58e-2269cf8b97ce","name":"Walgreens Co. #3681","address1":"1214 Westover Hills Blvd","address2":"","city":"Richmond","state":"VA","zip":"23225","phone":"804-230-6335","distance":6.66,"lat":37.520638,"long":-77.489287,"in_stock":true}},{"type":"Feature","geometry":{"type":"Point","coordinates":[-77.487961,37.493526]},"properties":{"guid":"13faebcf-b0fe-4afc-a72c-42ea92ce0bd0","name":"Walgreens Co. #3682","address1":"5122 Hull Street Rd","address2":"","city":"Richmond","state":"VA","zip":"23224","phone":"804-232-4399","distance":6.79,"lat":37.493526,"long":-77.487961,"in_stock":true}},{"type":"Feature","geometry":{"type":"Point","coordinates":[-77.487943,37.554357]},"properties":{"guid":"c316cbdb-f3ed-4793-940e-aeae7201f112","name":"Kroger Pharmacy #02900504","address1":"3507 W Cary St","address2":"","city":"Richmond","state":"VA","zip":"23221","phone":"(804) 254-6400","distance":7.36,"lat":37.554357,"long":-77.487943,"in_stock":true}},{"type":"Feature","geometry":{"type":"Point","coordinates":[-77.486548,37.55623]},"properties":{"guid":"5fd60f0f-2905-46be-9d4a-8633aaa92ed3","name":"CVS Pharmacy, Inc. #01988","address1":"3514 W Cary St","address2":"","city":"Richmond","state":"VA","zip":"23221","phone":"(804) 355-8533","distance":7.48,"lat":37.55623,"long":-77.486548,"in_stock":true}},{"type":"Feature","geometry":{"type":"Point","coordinates":[-77.48253,37.469142]},"properties":{"guid":"ccb2ca03-2bc7-47df-9156-b53308ca47b5","name":"CVS Pharmacy, Inc. #01971","address1":"4715 Walmsley Blvd","address2":"","city":"Richmond","state":"VA","zip":"23234","phone":"(804) 275-9235","distance":7.54,"lat":37.469142,"long":-77.48253,"in_stock":true}},{"type":"Feature","geometry":{"type":"Point","coordinates":[-77.469446,37.562487]},"properties":{"guid":"95623275-aa8b-40bf-a9a0-2649a001eac9","name":"CVS Pharmacy, Inc. #01530","address1":"2738 W Broad St","address2":"","city":"Richmond","state":"VA","zip":"23220","phone":"(804) 359-2497","distance":8.51,"lat":37.562487,"long":-77.469446,"in_stock":true}},{"type":"Feature","geometry":{"type":"Point","coordinates":[-77.453883,37.555945]},"properties":{"guid":"76e864a4-4c64-4753-964e-7152d7008bb1","name":"Kroger Pharmacy #02900511","address1":"901 N Lombardy St","address2":"","city":"Richmond","state":"VA","zip":"23220","phone":"(804) 213-3623","distance":9.12,"lat":37.555945,"long":-77.453883,"in_stock":true}},{"type":"Feature","geometry":{"type":"Point","coordinates":[-77.446731,37.548928]},"properties":{"guid":"4d6b9311-83b4-42b9-9de2-fb0ca8db05a7","name":"Rite Aid #RA103715","address1":"520 W Broad St","address2":"","city":"Richmond","state":"VA","zip":"23220","phone":"804-225-1340","distance":9.34,"lat":37.548928,"long":-77.446731,"in_stock":true}},{"type":"Feature","geometry":{"type":"Point","coordinates":[-77.446731,37.548928]},"properties":{"guid":"4d6b9311-83b4-42b9-9de2-fb0ca8db05a7","name":"Rite Aid #RA103715","address1":"520 W Broad St","address2":"","city":"Richmond","state":"VA","zip":"23220","phone":"804-225-1340","distance":0.19,"lat":37.548928,"long":-77.446731,"in_stock":true}},{"type":"Feature","geometry":{"type":"Point","coordinates":[-77.453883,37.555945]},"properties":{"guid":"76e864a4-4c64-4753-964e-7152d7008bb1","name":"Kroger Pharmacy #02900511","address1":"901 N Lombardy St","address2":"","city":"Richmond","state":"VA","zip":"23220","phone":"(804) 213-3623","distance":0.46,"lat":37.555945,"long":-77.453883,"in_stock":true}},{"type":"Feature","geometry":{"type":"Point","coordinates":[-77.469446,37.562487]},"properties":{"guid":"95623275-aa8b-40bf-a9a0-2649a001eac9","name":"CVS Pharmacy, Inc. #01530","address1":"2738 W Broad St","address2":"","city":"Richmond","state":"VA","zip":"23220","phone":"(804) 359-2497","distance":1.37,"lat":37.562487,"long":-77.469446,"in_stock":true}},{"type":"Feature","geometry":{"type":"Point","coordinates":[-77.445905,37.571723]},"properties":{"guid":"dc3c9fdb-6ef8-4b88-bbbe-ca647f3351d8","name":"Walgreens Co. #3853","address1":"2924 Chamberlayne Ave","address2":"","city":"Richmond","state":"VA","zip":"23222","phone":"804-321-7068","distance":1.52,"lat":37.571723,"long":-77.445905,"in_stock":true}},{"type":"Feature","geometry":{"type":"Point","coordinates":[-77.425328,37.535944]},"properties":{"guid":"392365f8-d38a-4840-a576-ce717eec892f","name":"JenCare Neighborhood Medical Shockoe Bottom, LLC","address1":"1712 E Broad St","address2":"","city":"Richmond","state":"VA","zip":"23223","phone":"804-344-9848","distance":1.66,"lat":37.535944,"long":-77.425328,"in_stock":true}},{"type":"Feature","geometry":{"type":"Point","coordinates":[-77.486548,37.55623]},"properties":{"guid":"5fd60f0f-2905-46be-9d4a-8633aaa92ed3","name":"CVS Pharmacy, Inc. #01988","address1":"3514 W Cary St","address2":"","city":"Richmond","state":"VA","zip":"23221","phone":"(804) 355-8533","distance":2.05,"lat":37.55623,"long":-77.486548,"in_stock":true}},{"type":"Feature","geometry":{"type":"Point","coordinates":[-77.487943,37.554357]},"properties":{"guid":"c316cbdb-f3ed-4793-940e-aeae7201f112","name":"Kroger Pharmacy #02900504","address1":"3507 W Cary St","address2":"","city":"Richmond","state":"VA","zip":"23221","phone":"(804) 254-6400","distance":2.1,"lat":37.554357,"long":-77.487943,"in_stock":true}},{"type":"Feature","geometry":{"type":"Point","coordinates":[-77.421607,37.529504]},"properties":{"guid":"917655a5-f010-4db8-a360-c4616fc674bd","name":"CVS Pharmacy, Inc. #02973","address1":"2400 E Main St","address2":"","city":"Richmond","state":"VA","zip":"23223","phone":"(804) 643-1383","distance":2.1,"lat":37.529504,"long":-77.421607,"in_stock":true}},{"type":"Feature","geometry":{"type":"Point","coordinates":[-77.489287,37.520638]},"properties":{"guid":"0408171a-718b-48d5-b58e-2269cf8b97ce","name":"Walgreens Co. #3681","address1":"1214 Westover Hills Blvd","address2":"","city":"Richmond","state":"VA","zip":"23225","phone":"804-230-6335","distance":2.96,"lat":37.520638,"long":-77.489287,"in_stock":true}},{"type":"Feature","geometry":{"type":"Point","coordinates":[-77.453599,37.600756]},"properties":{"guid":"ec4afea2-53db-4115-a98d-9ac0c19c597a","name":"Walgreens Co. #3852","address1":"1157 Azalea Ave","address2":"","city":"Richmond","state":"VA","zip":"23227","phone":"804-261-4734","distance":3.51,"lat":37.600756,"long":-77.453599,"in_stock":true}},{"type":"Feature","geometry":{"type":"Point","coordinates":[-77.524658,37.534365]},"properties":{"guid":"e9c89ecf-b8d2-4ce1-a076-a17e7707d2d8","name":"Publix Super Markets Inc. #1636","address1":"7045 Forest Hill Ave","address2":"","city":"Richmond","state":"VA","zip":"23225","phone":"(804) 253-0351","distance":4.23,"lat":37.534365,"long":-77.524658,"in_stock":false}},{"type":"Feature","geometry":{"type":"Point","coordinates":[-77.487961,37.493526]},"properties":{"guid":"13faebcf-b0fe-4afc-a72c-42ea92ce0bd0","name":"Walgreens Co. #3682","address1":"5122 Hull Street Rd","address2":"","city":"Richmond","state":"VA","zip":"23224","phone":"804-232-4399","distance":4.42,"lat":37.493526,"long":-77.487961,"in_stock":true}},{"type":"Feature","geometry":{"type":"Point","coordinates":[-77.531488,37.534913]},"properties":{"guid":"47fba5eb-680d-4311-acbe-e1996b143e57","name":"Walmart Inc #10-2821","address1":"2501 Sheila Ln","address2":"","city":"Richmond","state":"VA","zip":"23225","phone":"8043206991","distance":4.58,"lat":37.534913,"long":-77.531488,"in_stock":true}},{"type":"Feature","geometry":{"type":"Point","coordinates":[-77.48253,37.469142]},"properties":{"guid":"ccb2ca03-2bc7-47df-9156-b53308ca47b5","name":"CVS Pharmacy, Inc. #01971","address1":"4715 Walmsley Blvd","address2":"","city":"Richmond","state":"VA","zip":"23234","phone":"(804) 275-9235","distance":5.86,"lat":37.469142,"long":-77.48253,"in_stock":true}},{"type":"Feature","geometry":{"type":"Point","coordinates":[-77.513481,37.480734]},"properties":{"guid":"0a90466b-5ab7-4608-8fe5-b8fd0fa70274","name":"JenCare Neighborhood Medical Hull St, LLC","address1":"6530 Hull Street Rd","address2":"","city":"Richmond","state":"VA","zip":"23224","phone":"804-674-3425","distance":5.92,"lat":37.480734,"long":-77.513481,"in_stock":true}},{"type":"Feature","geometry":{"type":"Point","coordinates":[-77.487943,37.554357]},"properties":{"guid":"c316cbdb-f3ed-4793-940e-aeae7201f112","name":"Kroger Pharmacy #02900504","address1":"3507 W Cary St","address2":"","city":"Richmond","state":"VA","zip":"23221","phone":"(804) 254-6400","distance":0.53,"lat":37.554357,"long":-77.487943,"in_stock":true}},{"type":"Feature","geometry":{"type":"Point","coordinates":[-77.486548,37.55623]},"properties":{"guid":"5fd60f0f-2905-46be-9d4a-8633aaa92ed3","name":"CVS Pharmacy, Inc. #01988","address1":"3514 W Cary St","address2":"","city":"Richmond","state":"VA","zip":"23221","phone":"(804) 355-8533","distance":0.56,"lat":37.55623,"long":-77.486548,"in_stock":true}},{"type":"Feature","geometry":{"type":"Point","coordinates":[-77.469446,37.562487]},"properties":{"guid":"95623275-aa8b-40bf-a9a0-2649a001eac9","name":"CVS Pharmacy, Inc. #01530","address1":"2738 W Broad St","address2":"","city":"Richmond","state":"VA","zip":"23220","phone":"(804) 359-2497","distance":1.04,"lat":37.562487,"long":-77.469446,"in_stock":true}},{"type":"Feature","geometry":{"type":"Point","coordinates":[-77.453883,37.555945]},"properties":{"guid":"76e864a4-4c64-4753-964e-7152d7008bb1","name":"Kroger Pharmacy #02900511","address1":"901 N Lombardy St","address2":"","city":"Richmond","state":"VA","zip":"23220","phone":"(804) 213-3623","distance":1.49,"lat":37.555945,"long":-77.453883,"in_stock":true}},{"type":"Feature","geometry":{"type":"Point","coordinates":[-77.446731,37.548928]},"properties":{"guid":"4d6b9311-83b4-42b9-9de2-fb0ca8db05a7","name":"Rite Aid #RA103715","address1":"520 W Broad St","address2":"","city":"Richmond","state":"VA","zip":"23220","phone":"804-225-1340","distance":1.82,"lat":37.548928,"long":-77.446731,"in_stock":true}},{"type":"Feature","geometry":{"type":"Point","coordinates":[-77.489287,37.520638]},"properties":{"guid":"0408171a-718b-48d5-b58e-2269cf8b97ce","name":"Walgreens Co. #3681","address1":"1214 Westover Hills Blvd","address2":"","city":"Richmond","state":"VA","zip":"23225","phone":"804-230-6335","distance":2.09,"lat":37.520638,"long":-77.489287,"in_stock":true}},{"type":"Feature","geometry":{"type":"Point","coordinates":[-77.445905,37.571723]},"properties":{"guid":"dc3c9fdb-6ef8-4b88-bbbe-ca647f3351d8","name":"Walgreens Co. #3853","address1":"2924 Chamberlayne Ave","address2":"","city":"Richmond","state":"VA","zip":"23222","phone":"804-321-7068","distance":2.4,"lat":37.571723,"long":-77.445905,"in_stock":true}},{"type":"Feature","geometry":{"type":"Point","coordinates":[-77.524658,37.534365]},"properties":{"guid":"e9c89ecf-b8d2-4ce1-a076-a17e7707d2d8","name":"Publix Super Markets Inc. #1636","address1":"7045 Forest Hill Ave","address2":"","city":"Richmond","state":"VA","zip":"23225","phone":"(804) 253-0351","distance":2.67,"lat":37.534365,"long":-77.524658,"in_stock":false}},{"type":"Feature","geometry":{"type":"Point","coordinates":[-77.531488,37.534913]},"properties":{"guid":"47fba5eb-680d-4311-acbe-e1996b143e57","name":"Walmart Inc #10-2821","address1":"2501 Sheila Ln","address2":"","city":"Richmond","state":"VA","zip":"23225","phone":"8043206991","distance":3.01,"lat":37.534913,"long":-77.531488,"in_stock":true}},{"type":"Feature","geometry":{"type":"Point","coordinates":[-77.425328,37.535944]},"properties":{"guid":"392365f8-d38a-4840-a576-ce717eec892f","name":"JenCare Neighborhood Medical Shockoe Bottom, LLC","address1":"1712 E Broad St","address2":"","city":"Richmond","state":"VA","zip":"23223","phone":"804-344-9848","distance":3.15,"lat":37.535944,"long":-77.425328,"in_stock":true}},{"type":"Feature","geometry":{"type":"Point","coordinates":[-77.421607,37.529504]},"properties":{"guid":"917655a5-f010-4db8-a360-c4616fc674bd","name":"CVS Pharmacy, Inc. #02973","address1":"2400 E Main St","address2":"","city":"Richmond","state":"VA","zip":"23223","phone":"(804) 643-1383","distance":3.5,"lat":37.529504,"long":-77.421607,"in_stock":true}},{"type":"Feature","geometry":{"type":"Point","coordinates":[-77.453599,37.600756]},"properties":{"guid":"ec4afea2-53db-4115-a98d-9ac0c19c597a","name":"Walgreens Co. #3852","address1":"1157 Azalea Ave","address2":"","city":"Richmond","state":"VA","zip":"23227","phone":"804-261-4734","distance":3.79,"lat":37.600756,"long":-77.453599,"in_stock":true}},{"type":"Feature","geometry":{"type":"Point","coordinates":[-77.487961,37.493526]},"properties":{"guid":"13faebcf-b0fe-4afc-a72c-42ea92ce0bd0","name":"Walgreens Co. #3682","address1":"5122 Hull Street Rd","address2":"","city":"Richmond","state":"VA","zip":"23224","phone":"804-232-4399","distance":3.93,"lat":37.493526,"long":-77.487961,"in_stock":true}},{"type":"Feature","geometry":{"type":"Point","coordinates":[-77.513481,37.480734]},"properties":{"guid":"0a90466b-5ab7-4608-8fe5-b8fd0fa70274","name":"JenCare Neighborhood Medical Hull St, LLC","address1":"6530 Hull Street Rd","address2":"","city":"Richmond","state":"VA","zip":"23224","phone":"804-674-3425","distance":5.13,"lat":37.480734,"long":-77.513481,"in_stock":true}},{"type":"Feature","geometry":{"type":"Point","coordinates":[-77.48253,37.469142]},"properties":{"guid":"ccb2ca03-2bc7-47df-9156-b53308ca47b5","name":"CVS Pharmacy, Inc. #01971","address1":"4715 Walmsley Blvd","address2":"","city":"Richmond","state":"VA","zip":"23234","phone":"(804) 275-9235","distance":5.59,"lat":37.469142,"long":-77.48253,"in_stock":true}},{"type":"Feature","geometry":{"type":"Point","coordinates":[-77.486548,37.55623]},"properties":{"guid":"5fd60f0f-2905-46be-9d4a-8633aaa92ed3","name":"CVS Pharmacy, Inc. #01988","address1":"3514 W Cary St","address2":"","city":"Richmond","state":"VA","zip":"23221","phone":"(804) 355-8533","distance":3.54,"lat":37.55623,"long":-77.486548,"in_stock":true}},{"type":"Feature","geometry":{"type":"Point","coordinates":[-77.487943,37.554357]},"properties":{"guid":"c316cbdb-f3ed-4793-940e-aeae7201f112","name":"Kroger Pharmacy #02900504","address1":"3507 W Cary St","address2":"","city":"Richmond","state":"VA","zip":"23221","phone":"(804) 254-6400","distance":3.61,"lat":37.554357,"long":-77.487943,"in_stock":true}},{"type":"Feature","geometry":{"type":"Point","coordinates":[-77.453599,37.600756]},"properties":{"guid":"ec4afea2-53db-4115-a98d-9ac0c19c597a","name":"Walgreens Co. #3852","address1":"1157 Azalea Ave","address2":"","city":"Richmond","state":"VA","zip":"23227","phone":"804-261-4734","distance":3.64,"lat":37.600756,"long":-77.453599,"in_stock":true}},{"type":"Feature","geometry":{"type":"Point","coordinates":[-77.469446,37.562487]},"properties":{"guid":"95623275-aa8b-40bf-a9a0-2649a001eac9","name":"CVS Pharmacy, Inc. #01530","address1":"2738 W Broad St","address2":"","city":"Richmond","state":"VA","zip":"23220","phone":"(804) 359-2497","distance":3.79,"lat":37.562487,"long":-77.469446,"in_stock":true}},{"type":"Feature","geometry":{"type":"Point","coordinates":[-77.445905,37.571723]},"properties":{"guid":"dc3c9fdb-6ef8-4b88-bbbe-ca647f3351d8","name":"Walgreens Co. #3853","address1":"2924 Chamberlayne Ave","address2":"","city":"Richmond","state":"VA","zip":"23222","phone":"804-321-7068","distance":4.5,"lat":37.571723,"long":-77.445905,"in_stock":true}},{"type":"Feature","geometry":{"type":"Point","coordinates":[-77.531488,37.534913]},"properties":{"guid":"47fba5eb-680d-4311-acbe-e1996b143e57","name":"Walmart Inc #10-2821","address1":"2501 Sheila Ln","address2":"","city":"Richmond","state":"VA","zip":"23225","phone":"8043206991","distance":4.54,"lat":37.534913,"long":-77.531488,"in_stock":true}},{"type":"Feature","geometry":{"type":"Point","coordinates":[-77.524658,37.534365]},"properties":{"guid":"e9c89ecf-b8d2-4ce1-a076-a17e7707d2d8","name":"Publix Super Markets Inc. #1636","address1":"7045 Forest Hill Ave","address2":"","city":"Richmond","state":"VA","zip":"23225","phone":"(804) 253-0351","distance":4.54,"lat":37.534365,"long":-77.524658,"in_stock":false}},{"type":"Feature","geometry":{"type":"Point","coordinates":[-77.453883,37.555945]},"properties":{"guid":"76e864a4-4c64-4753-964e-7152d7008bb1","name":"Kroger Pharmacy #02900511","address1":"901 N Lombardy St","address2":"","city":"Richmond","state":"VA","zip":"23220","phone":"(804) 213-3623","distance":4.73,"lat":37.555945,"long":-77.453883,"in_stock":true}},{"type":"Feature","geometry":{"type":"Point","coordinates":[-77.446731,37.548928]},"properties":{"guid":"4d6b9311-83b4-42b9-9de2-fb0ca8db05a7","name":"Rite Aid #RA103715","address1":"520 W Broad St","address2":"","city":"Richmond","state":"VA","zip":"23220","phone":"804-225-1340","distance":5.34,"lat":37.548928,"long":-77.446731,"in_stock":true}},{"type":"Feature","geometry":{"type":"Point","coordinates":[-77.489287,37.520638]},"properties":{"guid":"0408171a-718b-48d5-b58e-2269cf8b97ce","name":"Walgreens Co. #3681","address1":"1214 Westover Hills Blvd","address2":"","city":"Richmond","state":"VA","zip":"23225","phone":"804-230-6335","distance":5.74,"lat":37.520638,"long":-77.489287,"in_stock":true}},{"type":"Feature","geometry":{"type":"Point","coordinates":[-77.425328,37.535944]},"properties":{"guid":"392365f8-d38a-4840-a576-ce717eec892f","name":"JenCare Neighborhood Medical Shockoe Bottom, LLC","address1":"1712 E Broad St","address2":"","city":"Richmond","state":"VA","zip":"23223","phone":"804-344-9848","distance":6.82,"lat":37.535944,"long":-77.425328,"in_stock":true}},{"type":"Feature","geometry":{"type":"Point","coordinates":[-77.421607,37.529504]},"properties":{"guid":"917655a5-f010-4db8-a360-c4616fc674bd","name":"CVS Pharmacy, Inc. #02973","address1":"2400 E Main St","address2":"","city":"Richmond","state":"VA","zip":"23223","phone":"(804) 643-1383","distance":7.26,"lat":37.529504,"long":-77.421607,"in_stock":true}},{"type":"Feature","geometry":{"type":"Point","coordinates":[-77.487961,37.493526]},"properties":{"guid":"13faebcf-b0fe-4afc-a72c-42ea92ce0bd0","name":"Walgreens Co. #3682","address1":"5122 Hull Street Rd","address2":"","city":"Richmond","state":"VA","zip":"23224","phone":"804-232-4399","distance":7.56,"lat":37.493526,"long":-77.487961,"in_stock":true}}]}
