{
  "providers" : [ {
    "guid" : "4d6b9311-83b4-42b9-9de2-fb0ca8db05a7",
    "name" : "Rite Aid #RA103715",
    "address1" : "520 W Broad St",
    "address2" : "",
    "city" : "Richmond",
    "state" : "VA",
    "zip" : "23220",
    "phone" : "804-225-1340",
    "distance" : 0.19,
    "lat" : 37.548928,
    "long" : -77.446731,
    "in_stock" : true
  }, {
    "guid" : "76e864a4-4c64-4753-964e-7152d7008bb1",
    "name" : "Kroger Pharmacy #02900511",
    "address1" : "901 N Lombardy St",
    "address2" : "",
    "city" : "Richmond",
    "state" : "VA",
    "zip" : "23220",
    "phone" : "(804) 213-3623",
    "distance" : 0.46,
    "lat" : 37.555945,
    "long" : -77.453883,
    "in_stock" : true
  }, {
    "guid" : "95623275-aa8b-40bf-a9a0-2649a001eac9",
    "name" : "CVS Pharmacy, Inc. #01530",
    "address1" : "2738 W Broad St",
    "address2" : "",
    "city" : "Richmond",
    "state" : "VA",
    "zip" : "23220",
    "phone" : "(804) 359-2497",
    "distance" : 1.37,
    "lat" : 37.562487,
    "long" : -77.469446,
    "in_stock" : true
  }, {
    "guid" : "dc3c9fdb-6ef8-4b88-bbbe-ca647f3351d8",
    "name" : "Walgreens Co. #3853",
    "address1" : "2924 Chamberlayne Ave",
    "address2" : "",
    "city" : "Richmond",
    "state" : "VA",
    "zip" : "23222",
    "phone" : "804-321-7068",
    "distance" : 1.52,
    "lat" : 37.571723,
    "long" : -77.445905,
    "in_stock" : true
  }, {
    "guid" : "392365f8-d38a-4840-a576-ce717eec892f",
    "name" : "JenCare Neighborhood Medical Shockoe Bottom, LLC",
    "address1" : "1712 E Broad St",
    "address2" : "",
    "city" : "Richmond",
    "state" : "VA",
    "zip" : "23223",
    "phone" : "804-344-9848",
    "distance" : 1.66,
    "lat" : 37.535944,
    "long" : -77.425328,
    "in_stock" : true
  }, {
    "guid" : "5fd60f0f-2905-46be-9d4a-8633aaa92ed3",
    "name" : "CVS Pharmacy, Inc. #01988",
    "address1" : "3514 W Cary St",
    "address2" : "",
    "city" : "Richmond",
    "state" : "VA",
    "zip" : "23221",
    "phone" : "(804) 355-8533",
    "distance" : 2.05,
    "lat" : 37.55623,
    "long" : -77.486548,
    "in_stock" : true
  }, {
    "guid" : "c316cbdb-f3ed-4793-940e-aeae7201f112",
    "name" : "Kroger Pharmacy #02900504",
    "address1" : "3507 W Cary St",
    "address2" : "",
    "city" : "Richmond",
    "state" : "VA",
    "zip" : "23221",
    "phone" : "(804) 254-6400",
    "distance" : 2.1,
    "lat" : 37.554357,
    "long" : -77.487943,
    "in_stock" : true
  }, {
    "guid" : "917655a5-f010-4db8-a360-c4616fc674bd",
    "name" : "CVS Pharmacy, Inc. #02973",
    "address1" : "2400 E Main St",
    "address2" : "",
    "city" : "Richmond",
    "state" : "VA",
    "zip" : "23223",
    "phone" : "(804) 643-1383",
    "distance" : 2.1,
    "lat" : 37.529504,
    "long" : -77.421607,
    "in_stock" : true
  }, {
    "guid" : "0408171a-718b-48d5-b58e-2269cf8b97ce",
    "name" : "Walgreens Co. #3681",
    "address1" : "1214 Westover Hills Blvd",
    "address2" : "",
    "city" : "Richmond",
    "state" : "VA",
    "zip" : "23225",
    "phone" : "804-230-6335",
    "distance" : 2.96,
    "lat" : 37.520638,
    "long" : -77.489287,
    "in_stock" : true
  }, {
    "guid" : "96c94b32-bd29-48db-8ce0-eb71fa3c9e83",
    "name" : "Kroger Pharmacy #02900509",
    "address1" : "304-C, 1601 Willow Lawn Dr",
    "address2" : "",
    "city" : "Richmond",
    "state" : "VA",
    "zip" : "23230",
    "phone" : "(804) 288-3859",
    "distance" : 3.41,
    "lat" : 37.582168,
    "long" : -77.497271,
    "in_stock" : true
  }, {
    "guid" : "ce0b0279-268c-46c2-8b1d-e5097186858a",
    "name" : "Walgreens Co. #4488",
    "address1" : "3715 Mechanicsville Turnpike",
    "address2" : "",
    "city" : "Richmond",
    "state" : "VA",
    "zip" : "23223",
    "phone" : "804-329-1555",
    "distance" : 3.51,
    "lat" : 37.576772,
    "long" : -77.395515,
    "in_stock" : true
  }, {
    "guid" : "ec4afea2-53db-4115-a98d-9ac0c19c597a",
    "name" : "Walgreens Co. #3852",
    "address1" : "1157 Azalea Ave",
    "address2" : "",
    "city" : "Richmond",
    "state" : "VA",
    "zip" : "23227",
    "phone" : "804-261-4734",
    "distance" : 3.51,
    "lat" : 37.600756,
    "long" : -77.453599,
    "in_stock" : true
  }, {
    "guid" : "52215edb-415e-4f28-87bc-ccf0e927627c",
    "name" : "JenCare Neighborhood Medical East Richmond, LLC",
    "address1" : "3806 Mechanicsville Turnpike",
    "address2" : "",
    "city" : "Richmond",
    "state" : "VA",
    "zip" : "23222",
    "phone" : "804-228-1143",
    "distance" : 3.58,
    "lat" : 37.579495,
    "long" : -77.396331,
    "in_stock" : true
  }, {
    "guid" : "2b21971c-4eeb-42e6-ba34-c40ad46e137a",
    "name" : "Walmart Inc #10-3885",
    "address1" : "5221 Brook Rd",
    "address2" : "",
    "city" : "Richmond",
    "state" : "VA",
    "zip" : "23227",
    "phone" : "8042664768",
    "distance" : 3.68,
    "lat" : 37.603212,
    "long" : -77.453794,
    "in_stock" : true
  }, {
    "guid" : "e9c89ecf-b8d2-4ce1-a076-a17e7707d2d8",
    "name" : "Publix Super Markets Inc. #1636",
    "address1" : "7045 Forest Hill Ave",
    "address2" : "",
    "city" : "Richmond",
    "state" : "VA",
    "zip" : "23225",
    "phone" : "(804) 253-0351",
    "distance" : 4.23,
    "lat" : 37.534365,
    "long" : -77.524658,
    "in_stock" : false
  }, {
    "guid" : "1444407a-6f6b-4d99-a7fb-22ce1a1d12f4",
    "name" : "Walgreens Co. #3860",
    "address1" : "4720 Nine Mile Rd",
    "address2" : "",
    "city" : "Richmond",
    "state" : "VA",
    "zip" : "23223",
    "phone" : "804-222-7914",
    "distance" : 4.35,
    "lat" : 37.544306,
    "long" : -77.370929,
    "in_stock" : true
  }, {
    "guid" : "13faebcf-b0fe-4afc-a72c-42ea92ce0bd0",
    "name" : "Walgreens Co. #3682",
    "address1" : "5122 Hull Street Rd",
    "address2" : "",
    "city" : "Richmond",
    "state" : "VA",
    "zip" : "23224",
    "phone" : "804-232-4399",
    "distance" : 4.42,
    "lat" : 37.493526,
    "long" : -77.487961,
    "in_stock" : true
  }, {
    "guid" : "47fba5eb-680d-4311-acbe-e1996b143e57",
    "name" : "Walmart Inc #10-2821",
    "address1" : "2501 Sheila Ln",
    "address2" : "",
    "city" : "Richmond",
    "state" : "VA",
    "zip" : "23225",
    "phone" : "8043206991",
    "distance" : 4.58,
    "lat" : 37.534913,
    "long" : -77.531488,
    "in_stock" : true
  }, {
    "guid" : "4e547db1-5ae3-4cc3-9b7a-dea169f22121",
    "name" : "Walmart Inc #10-7032",
    "address1" : "5001 Nine Mile Rd",
    "address2" : "",
    "city" : "Richmond",
    "state" : "VA",
    "zip" : "23223",
    "phone" : "8042531528",
    "distance" : 4.71,
    "lat" : 37.544483,
    "long" : -77.364385,
    "in_stock" : true
  }, {
    "guid" : "18677f48-bca2-4e64-aa16-de87110780e5",
    "name" : "Walmart Inc #10-4191",
    "address1" : "6920 Forest Ave",
    "address2" : "",
    "city" : "Richmond",
    "state" : "VA",
    "zip" : "23230",
    "phone" : "8047742236",
    "distance" : 5.38,
    "lat" : 37.60291,
    "long" : -77.521992,
    "in_stock" : true
  }, {
    "guid" : "a569f4aa-8748-4bc4-a548-91c9525be8aa",
    "name" : "Kroger Pharmacy #02900514",
    "address1" : "7000 Tim Price Way",
    "address2" : "",
    "city" : "Richmond",
    "state" : "VA",
    "zip" : "23225",
    "phone" : "(804) 772-8541",
    "distance" : 5.56,
    "lat" : 37.498806,
    "long" : -77.528263,
    "in_stock" : true
  }, {
    "guid" : "be7d4e6d-e6e8-4ceb-9a8c-b873ff13e471",
    "name" : "Walmart Inc #10-2295",
    "address1" : "7901 Brook Rd",
    "address2" : "",
    "city" : "Richmond",
    "state" : "VA",
    "zip" : "23227",
    "phone" : "8045538432",
    "distance" : 5.61,
    "lat" : 37.63107,
    "long" : -77.456214,
    "in_stock" : true
  }, {
    "guid" : "cd529c9b-427d-4263-8c96-680d615f118f",
    "name" : "Publix Super Markets Inc. #1596",
    "address1" : "4591 S Laburnum Ave",
    "address2" : "",
    "city" : "Richmond",
    "state" : "VA",
    "zip" : "23231",
    "phone" : "(804) 591-4321",
    "distance" : 5.65,
    "lat" : 37.525561,
    "long" : -77.351606,
    "in_stock" : false
  }, {
    "guid" : "a7e27ae6-168b-4e7c-9890-d6b880102ec9",
    "name" : "Partners in Pediatrics, PC",
    "address1" : "7110 Forest Ave #105",
    "address2" : "",
    "city" : "Richmond",
    "state" : "VA",
    "zip" : "23226",
    "phone" : "804-377-7100",
    "distance" : 5.72,
    "lat" : 37.604656,
    "long" : -77.528392,
    "in_stock" : false
  }, {
    "guid" : "7212287e-23de-4fbc-8f31-8811e74a4a15",
    "name" : "Kroger Pharmacy #02900502",
    "address1" : "4816 S Laburnum Ave",
    "address2" : "",
    "city" : "Richmond",
    "state" : "VA",
    "zip" : "23231",
    "phone" : "(804) 226-0010",
    "distance" : 5.77,
    "lat" : 37.519776,
    "long" : -77.351877,
    "in_stock" : true
  }, {
    "guid" : "ccb2ca03-2bc7-47df-9156-b53308ca47b5",
    "name" : "CVS Pharmacy, Inc. #01971",
    "address1" : "4715 Walmsley Blvd",
    "address2" : "",
    "city" : "Richmond",
    "state" : "VA",
    "zip" : "23234",
    "phone" : "(804) 275-9235",
    "distance" : 5.86,
    "lat" : 37.469142,
    "long" : -77.48253,
    "in_stock" : true
  }, {
    "guid" : "bab2d6d5-d86a-4fc6-9fb4-e9ed8ea5042c",
    "name" : "Walgreens Co. #9779",
    "address1" : "4845 S Laburnum Ave",
    "address2" : "",
    "city" : "Richmond",
    "state" : "VA",
    "zip" : "23231",
    "phone" : "804-226-4581",
    "distance" : 5.9,
    "lat" : 37.518455,
    "long" : -77.349969,
    "in_stock" : true
  }, {
    "guid" : "9c5561ba-7005-4c6d-84da-dcffe01c0eab",
    "name" : "CVS Pharmacy, Inc. #01976",
    "address1" : "5100 S Laburnum Ave",
    "address2" : "",
    "city" : "Richmond",
    "state" : "VA",
    "zip" : "23231",
    "phone" : "(804) 222-7827",
    "distance" : 5.91,
    "lat" : 37.516798,
    "long" : -77.350532,
    "in_stock" : true
  }, {
    "guid" : "0a90466b-5ab7-4608-8fe5-b8fd0fa70274",
    "name" : "JenCare Neighborhood Medical Hull St, LLC",
    "address1" : "6530 Hull Street Rd",
    "address2" : "",
    "city" : "Richmond",
    "state" : "VA",
    "zip" : "23224",
    "phone" : "804-674-3425",
    "distance" : 5.92,
    "lat" : 37.480734,
    "long" : -77.513481,
    "in_stock" : true
  }, {
    "guid" : "27b58735-bb30-4efd-ab56-77d9e25cddbd",
    "name" : "Walmart Inc #10-1525",
    "address1" : "7430 Bell Creek Rd",
    "address2" : "",
    "city" : "Mechanicsville",
    "state" : "VA",
    "zip" : "23111",
    "phone" : "8047308877",
    "distance" : 6.8,
    "lat" : 37.613251,
    "long" : -77.354815,
    "in_stock" : true
  }, {
    "guid" : "14ac669b-23f5-48e8-a41d-d5c3050e0713",
    "name" : "Richard L Hunley, MD PC",
    "address1" : "7660 E Parham Rd #100",
    "address2" : "",
    "city" : "Henrico",
    "state" : "VA",
    "zip" : "23294",
    "phone" : "(804) 266-0787",
    "distance" : 6.93,
    "lat" : 37.630929,
    "long" : -77.524754,
    "in_stock" : true
  }, {
    "guid" : "f2c62333-4d4b-4934-9fea-0937d8c02719",
    "name" : "The Little Clinic #47110",
    "address1" : "9000 Staples Mill Rd",
    "address2" : "",
    "city" : "Henrico",
    "state" : "VA",
    "zip" : "23228",
    "phone" : "804-977-9526",
    "distance" : 6.98,
    "lat" : 37.637158,
    "long" : -77.514466,
    "in_stock" : false
  }, {
    "guid" : "a9ba379b-73c6-414f-be86-69ca6a943ae6",
    "name" : "Kroger Pharmacy #02900519",
    "address1" : "9000 Staples Mill Rd",
    "address2" : "",
    "city" : "Henrico",
    "state" : "VA",
    "zip" : "23228",
    "phone" : "(804) 977-9515",
    "distance" : 6.98,
    "lat" : 37.637158,
    "long" : -77.514466,
    "in_stock" : true
  }, {
    "guid" : "667a9f19-e2d5-43ad-bcd8-312583f24f19",
    "name" : "Westbury Apothecary #4826763",
    "address1" : "8903 Three Chopt Rd",
    "address2" : "",
    "city" : "Richmond",
    "state" : "VA",
    "zip" : "23229",
    "phone" : "804-285-3428",
    "distance" : 7.1,
    "lat" : 37.603658,
    "long" : -77.560666,
    "in_stock" : false
  }, {
    "guid" : "067c1fd0-ac1b-42c1-ace7-c98114f3d7b7",
    "name" : "Kroger Pharmacy #02900525",
    "address1" : "1510 Eastridge Rd",
    "address2" : "",
    "city" : "Richmond",
    "state" : "VA",
    "zip" : "23229",
    "phone" : "(804) 288-4396",
    "distance" : 7.13,
    "lat" : 37.603042,
    "long" : -77.561584,
    "in_stock" : false
  }, {
    "guid" : "458b6c7e-afe3-41bc-b8c1-3e5ab1b71796",
    "name" : "CVS Pharmacy, Inc. #01534",
    "address1" : "1301 E Nine Mile Rd",
    "address2" : "",
    "city" : "Highland Springs",
    "state" : "VA",
    "zip" : "23075",
    "phone" : "(804) 737-6493",
    "distance" : 7.19,
    "lat" : 37.53681,
    "long" : -77.319852,
    "in_stock" : true
  }, {
    "guid" : "09f2e9ae-92cf-48f4-ba8a-4c10b1aec8fa",
    "name" : "Walmart Inc #10-3869",
    "address1" : "1504 N Parham Rd",
    "address2" : "",
    "city" : "Richmond",
    "state" : "VA",
    "zip" : "23229",
    "phone" : "8042706034",
    "distance" : 7.35,
    "lat" : 37.604163,
    "long" : -77.565612,
    "in_stock" : true
  }, {
    "guid" : "90e7a9c4-0b9b-40ba-be72-9df50ddb54f2",
    "name" : "Walgreens Co. #13830",
    "address1" : "7039 Mechanicsville Turnpike",
    "address2" : "",
    "city" : "Mechanicsville",
    "state" : "VA",
    "zip" : "23111",
    "phone" : "804-746-1965",
    "distance" : 7.43,
    "lat" : 37.611564,
    "long" : -77.338634,
    "in_stock" : true
  }, {
    "guid" : "f9964f0a-d883-4b38-8f0b-24dc1238e477",
    "name" : "Walmart Inc #10-7174",
    "address1" : "5700 Hopkins Rd",
    "address2" : "",
    "city" : "Richmond",
    "state" : "VA",
    "zip" : "23234",
    "phone" : "8042530445",
    "distance" : 7.53,
    "lat" : 37.442627,
    "long" : -77.473471,
    "in_stock" : false
  }, {
    "guid" : "8fcc2d93-74b7-498e-9432-b2846a18bbd3",
    "name" : "Kroger Pharmacy #02900515",
    "address1" : "9351 Atlee Rd",
    "address2" : "",
    "city" : "Mechanicsville",
    "state" : "VA",
    "zip" : "23116",
    "phone" : "(804) 569-8241",
    "distance" : 7.53,
    "lat" : 37.65204,
    "long" : -77.401699,
    "in_stock" : false
  }, {
    "guid" : "9d272df5-fc93-45f4-b72e-ef3e3e2dd0f6",
    "name" : "Publix Super Markets Inc. #1626",
    "address1" : "6603 Mechanicsville Turnpike",
    "address2" : "",
    "city" : "Mechanicsville",
    "state" : "VA",
    "zip" : "23111",
    "phone" : "(804) 789-6030",
    "distance" : 7.53,
    "lat" : 37.610881,
    "long" : -77.335866,
    "in_stock" : false
  }, {
    "guid" : "1a17ebda-0e0b-4233-adfe-7efbcd275b54",
    "name" : "Richmond Pediatric Associates- Mechanicsville",
    "address1" : "7521 Right Flank Rd #100",
    "address2" : "",
    "city" : "Mechanicsville",
    "state" : "VA",
    "zip" : "23116",
    "phone" : "804-559-0447",
    "distance" : 7.79,
    "lat" : 37.634723,
    "long" : -77.356041,
    "in_stock" : false
  }, {
    "guid" : "71555631-9660-4f63-a7bf-9bd4cb511262",
    "name" : "Virginia Physicians, Inc.-Hanover Family Physicians",
    "address1" : "9376 Atlee Station Rd",
    "address2" : "",
    "city" : "Mechanicsville",
    "state" : "VA",
    "zip" : "23116",
    "phone" : "(804) 730-0990",
    "distance" : 8.07,
    "lat" : 37.662425,
    "long" : -77.410308,
    "in_stock" : true
  }, {
    "guid" : "3ce96aa4-8767-4a9d-a12f-f65d1bf2c157",
    "name" : "Kroger Pharmacy #02900501",
    "address1" : "2821 Hicks Rd",
    "address2" : "",
    "city" : "North Chesterfield",
    "state" : "VA",
    "zip" : "23235",
    "phone" : "(804) 675-4519",
    "distance" : 8.15,
    "lat" : 37.46162,
    "long" : -77.548561,
    "in_stock" : true
  }, {
    "guid" : "ce396e4b-4515-4adf-ac2b-927af6f0159e",
    "name" : "Kroger Pharmacy #02900510",
    "address1" : "6335 Mechanicsville Turnpike",
    "address2" : "",
    "city" : "Mechanicsville",
    "state" : "VA",
    "zip" : "23111",
    "phone" : "(804) 730-6833",
    "distance" : 8.45,
    "lat" : 37.615526,
    "long" : -77.319736,
    "in_stock" : true
  }, {
    "guid" : "d21887f7-36fa-4fd5-843e-6aaf635d568d",
    "name" : "Sams Club #10-6343",
    "address1" : "9440 W Broad St",
    "address2" : "",
    "city" : "Henrico",
    "state" : "VA",
    "zip" : "23294",
    "phone" : "8043463031",
    "distance" : 8.46,
    "lat" : 37.640457,
    "long" : -77.554202,
    "in_stock" : true
  }, {
    "guid" : "b6c872cf-b238-48e1-8bcb-f9c4b2e55c6e",
    "name" : "Publix Super Markets Inc. #1589",
    "address1" : "10250 Staples Mill Rd",
    "address2" : "",
    "city" : "Glen Allen",
    "state" : "VA",
    "zip" : "23060",
    "phone" : "(804) 591-4320",
    "distance" : 8.48,
    "lat" : 37.657043,
    "long" : -77.525735,
    "in_stock" : false
  }, {
    "guid" : "78c1afa7-597e-4a54-b56a-3edfaa371945",
    "name" : "Kroger Pharmacy #02900500",
    "address1" : "9480 W Broad St",
    "address2" : "",
    "city" : "Richmond",
    "state" : "VA",
    "zip" : "23294",
    "phone" : "(804) 270-1816",
    "distance" : 8.54,
    "lat" : 37.641197,
    "long" : -77.555314,
    "in_stock" : true
  }, {
    "guid" : "a5efc532-c64f-452f-ab2d-e98b5fc4cf4b",
    "name" : "Publix Super Markets Inc. #1591",
    "address1" : "10150 Brook Rd",
    "address2" : "",
    "city" : "Glen Allen",
    "state" : "VA",
    "zip" : "23059",
    "phone" : "(804) 253-9878",
    "distance" : 8.68,
    "lat" : 37.675203,
    "long" : -77.463206,
    "in_stock" : false
  }, {
    "guid" : "bfee6cd8-e6dc-4af7-bd44-c2116f7ece47",
    "name" : "Kroger Pharmacy #02900503",
    "address1" : "1356 Gaskins Rd",
    "address2" : "",
    "city" : "Richmond",
    "state" : "VA",
    "zip" : "23238",
    "phone" : "(804) 740-0011",
    "distance" : 8.71,
    "lat" : 37.606611,
    "long" : -77.592181,
    "in_stock" : true
  } ],
  "current_page" : 1,
  "total_pages" : 1
}
